{
  "IMG_1946.jpeg": {
    "location": "Alaskan Way, West Edge, Belltown, Seattle, King County, Washington, 98181, United States",
    "latitude": 47.608000000000004,
    "longitude": -122.34233333333333,
    "dateTaken": "2013-08-18T18:11:20.000Z"
  },
  "IMG_1944.jpeg": {
    "location": "Alaskan Way, West Edge, Belltown, Seattle, King County, Washington, 98181, United States",
    "latitude": 47.608000000000004,
    "longitude": -122.34233333333333,
    "dateTaken": "2013-08-18T18:11:13.000Z"
  },
  "IMG_1943.jpeg": {
    "location": "Alaskan Way, West Edge, Belltown, Seattle, King County, Washington, 98181, United States",
    "latitude": 47.608000000000004,
    "longitude": -122.34216666666666,
    "dateTaken": "2013-08-18T18:10:53.000Z"
  },
  "IMG_1942.jpeg": {
    "location": "West Edge, Belltown, Seattle, King County, Washington, 98181, United States",
    "latitude": 47.60783333333333,
    "longitude": -122.3425,
    "dateTaken": "2013-08-18T18:10:46.000Z"
  },
  "IMG_1940.jpeg": {
    "location": "West Edge, Belltown, Seattle, King County, Washington, 98181, United States",
    "latitude": 47.60583333333334,
    "longitude": -122.34116666666667,
    "dateTaken": "2013-08-18T17:29:26.000Z"
  },
  "IMG_1939.jpeg": {
    "location": "West Edge, Belltown, Seattle, King County, Washington, 98181, United States",
    "latitude": 47.60583333333334,
    "longitude": -122.34116666666667,
    "dateTaken": "2013-08-18T17:29:22.000Z"
  },
  "IMG_1938.jpeg": {
    "location": "West Edge, Belltown, Seattle, King County, Washington, 98181, United States",
    "latitude": 47.60583333333334,
    "longitude": -122.34083333333332,
    "dateTaken": "2013-08-18T17:18:13.000Z"
  },
  "IMG_1937.jpeg": {
    "location": "West Edge, Belltown, Seattle, King County, Washington, 98181, United States",
    "latitude": 47.60583333333334,
    "longitude": -122.34083333333332,
    "dateTaken": "2013-08-18T17:18:10.000Z"
  },
  "IMG_1936.jpeg": {
    "location": "West Edge, Belltown, Seattle, King County, Washington, 98181, United States",
    "latitude": 47.606,
    "longitude": -122.34116666666667,
    "dateTaken": "2013-08-18T17:17:09.000Z"
  },
  "IMG_1935.jpeg": {
    "location": "West Edge, Belltown, Seattle, King County, Washington, 98181, United States",
    "latitude": 47.606,
    "longitude": -122.341,
    "dateTaken": "2013-08-18T17:15:50.000Z"
  },
  "IMG_1934.jpeg": {
    "location": "West Edge, Belltown, Seattle, King County, Washington, 98181, United States",
    "latitude": 47.60583333333334,
    "longitude": -122.341,
    "dateTaken": "2013-08-18T17:15:34.000Z"
  },
  "IMG_1932.jpeg": {
    "location": "2nd Avenue, West Edge, First Hill, Seattle, King County, Washington, 98174, United States",
    "latitude": 47.6045,
    "longitude": -122.33449999999999,
    "dateTaken": "2013-08-18T03:37:41.000Z"
  },
  "IMG_1931.jpeg": {
    "location": "2nd Avenue, West Edge, First Hill, Seattle, King County, Washington, 98174, United States",
    "latitude": 47.60466666666667,
    "longitude": -122.33449999999999,
    "dateTaken": "2013-08-18T03:27:19.000Z"
  },
  "IMG_1930.jpeg": {
    "location": "2nd Avenue, West Edge, First Hill, Seattle, King County, Washington, 98174, United States",
    "latitude": 47.60433333333334,
    "longitude": -122.33399999999999,
    "dateTaken": "2013-08-18T03:27:09.000Z"
  },
  "IMG_1929.jpeg": {
    "location": "2nd Avenue, West Edge, First Hill, Seattle, King County, Washington, 98174, United States",
    "latitude": 47.60466666666667,
    "longitude": -122.33449999999999,
    "dateTaken": "2013-08-18T03:22:11.000Z"
  },
  "IMG_1928.jpeg": {
    "location": "Marion Street, West Edge, First Hill, Seattle, King County, Washington, 98154, United States",
    "latitude": 47.60483333333333,
    "longitude": -122.33416666666666,
    "dateTaken": "2013-08-18T02:46:17.000Z"
  },
  "IMG_1927.jpeg": {
    "location": "Marion Street, West Edge, First Hill, Seattle, King County, Washington, 98154, United States",
    "latitude": 47.60483333333333,
    "longitude": -122.33416666666666,
    "dateTaken": "2013-08-18T02:46:13.000Z"
  },
  "IMG_1926.jpeg": {
    "location": "Marion Street, West Edge, First Hill, Seattle, King County, Washington, 98154, United States",
    "latitude": 47.60483333333333,
    "longitude": -122.33433333333333,
    "dateTaken": "2013-08-18T02:42:52.000Z"
  },
  "IMG_1925.jpeg": {
    "location": "2nd Avenue, West Edge, First Hill, Seattle, King County, Washington, 98174, United States",
    "latitude": 47.60483333333333,
    "longitude": -122.33449999999999,
    "dateTaken": "2013-08-18T02:42:50.000Z"
  },
  "IMG_1924.jpeg": {
    "location": "State Route 99 Tunnel, South Lake Union, Cascade, Belltown, Seattle, King County, Washington, 98181, United States",
    "latitude": 47.60816666666667,
    "longitude": -122.33999999999999,
    "dateTaken": "2013-08-17T20:27:19.000Z"
  },
  "IMG_1923.jpeg": {
    "location": "Alaska",
    "latitude": 64.724809,
    "longitude": -153.629618,
    "dateTaken": "2013-08-17T20:02:51.000Z"
  },
  "IMG_1922.jpeg": {
    "location": "Western Avenue, West Edge, Belltown, Seattle, King County, Washington, 98181, United States",
    "latitude": 47.6105,
    "longitude": -122.34366666666666,
    "dateTaken": "2013-08-17T17:58:44.000Z"
  }
}